[
  {"name":"Shibuya / Harajuku","country":"Japón","flag":"🇯🇵","region":"asia","lat":35.6595,"lng":139.7004,"density":142,"stops":890,"gyms":54,"rating":5,"tags":["evento","turistico","raid"],"tips":"La zona más densa de Tokio. Parque Yoyogi tiene cientos de stops en 500m de radio.","best":"Parque Yoyogi, Cruce Shibuya, Harajuku","evento":"Safari Zone frecuente, Community Days masivos","transporte":"Metro Yamanote Line"},
  {"name":"Shinjuku","country":"Japón","flag":"🇯🇵","region":"asia","lat":35.6938,"lng":139.7034,"density":138,"stops":820,"gyms":49,"rating":5,"tags":["evento","turistico","raid","nidos"],"tips":"Shinjuku Gyoen y los alrededores de la estación son excepcionales para raids.","best":"Shinjuku Gyoen, Kabukicho, Est. Shinjuku","evento":"Eventos Niantic frecuentes","transporte":"Estación Shinjuku central"},
  {"name":"Osaka Dotonbori","country":"Japón","flag":"🇯🇵","region":"asia","lat":34.6937,"lng":135.5023,"density":122,"stops":730,"gyms":44,"rating":5,"tags":["evento","turistico","raid","nidos"],"tips":"Dotonbori y el Castillo de Osaka tienen densidad comparable a Tokio.","best":"Osaka Castle Park, Dotonbori, Shinsaibashi","evento":"Eventos frecuentes, grupos activos","transporte":"Osaka Metro Midosuji Line"},
  {"name":"Kyoto Gion","country":"Japón","flag":"🇯🇵","region":"asia","lat":35.0116,"lng":135.7681,"density":116,"stops":680,"gyms":41,"rating":5,"tags":["turistico","raid","nidos"],"tips":"Cada templo y santuario es un PokéStop. Fushimi Inari tiene decenas seguidos.","best":"Fushimi Inari, Gion, Arashiyama","evento":"Comunidad activa, raids coordinados","transporte":"JR Nara Line, autobuses"},
  {"name":"Yokohama Minato Mirai","country":"Japón","flag":"🇯🇵","region":"asia","lat":35.4547,"lng":139.6367,"density":104,"stops":620,"gyms":37,"rating":4,"tags":["turistico","raid"],"tips":"El frente marítimo tiene densidad lineal muy alta, ideal para caminar jugando.","best":"Minato Mirai, Chinatown, Yamashita Park","evento":"Comunidad activa","transporte":"Minato Mirai Line"},
  {"name":"Nagoya","country":"Japón","flag":"🇯🇵","region":"asia","lat":35.1815,"lng":136.9066,"density":98,"stops":580,"gyms":35,"rating":4,"tags":["raid","nidos"],"tips":"El Parque del Castillo y el centro ofrecen muy buena densidad.","best":"Nagoya Castle, Sakae, Osu","evento":"Eventos regulares","transporte":"Nagoya Municipal Subway"},
  {"name":"Sapporo","country":"Japón","flag":"🇯🇵","region":"asia","lat":43.0618,"lng":141.3545,"density":90,"stops":520,"gyms":31,"rating":4,"tags":["nidos","raid"],"tips":"Odori Park atraviesa la ciudad con stops contiguos.","best":"Odori Park, Susukino, Hokkaido Shrine","evento":"Eventos invernales únicos","transporte":"Sapporo Municipal Subway"},

  {"name":"Gangnam, Seúl","country":"Corea del Sur","flag":"🇰🇷","region":"asia","lat":37.4979,"lng":127.0276,"density":118,"stops":670,"gyms":40,"rating":5,"tags":["evento","raid","turistico"],"tips":"Gangnam e Itaewon: altísima densidad. Comunidad coreana muy organizada.","best":"COEX Mall, Itaewon, Hongdae","evento":"Safari Zone Seúl 2023","transporte":"Metro Línea 2 verde"},
  {"name":"Hongdae, Seúl","country":"Corea del Sur","flag":"🇰🇷","region":"asia","lat":37.5563,"lng":126.9224,"density":112,"stops":640,"gyms":38,"rating":5,"tags":["evento","nidos","raid"],"tips":"Zona universitaria con alta densidad y comunidad joven muy activa.","best":"Hongdae, World Cup Park, Sinchon","evento":"Community Days masivos","transporte":"Metro Línea 2/6"},
  {"name":"Busan Haeundae","country":"Corea del Sur","flag":"🇰🇷","region":"asia","lat":35.1631,"lng":129.1638,"density":96,"stops":560,"gyms":33,"rating":4,"tags":["turistico","raid","nidos"],"tips":"La playa de Haeundae y el APEC Park tienen muchos stops al aire libre.","best":"Haeundae Beach, APEC Naru Park, Gamcheon","evento":"Comunidad activa de Busan","transporte":"Metro Línea 2 Haeundae"},
  {"name":"Incheon","country":"Corea del Sur","flag":"🇰🇷","region":"asia","lat":37.4563,"lng":126.7052,"density":88,"stops":500,"gyms":30,"rating":4,"tags":["raid","nidos"],"tips":"Chinatown y el Parque Central de Songdo tienen buena cobertura.","best":"Incheon Chinatown, Central Park Songdo","evento":"Eventos periódicos","transporte":"Metro AREX"},
  {"name":"Daegu","country":"Corea del Sur","flag":"🇰🇷","region":"asia","lat":35.8714,"lng":128.6014,"density":82,"stops":470,"gyms":28,"rating":3,"tags":["nidos","raid"],"tips":"Centro y Parque Duryu ofrecen densidad aceptable.","best":"Dongseong-ro, Duryu Park, Seomun Market","evento":"Comunidad local activa","transporte":"Metro Línea 1/2"},
  {"name":"Jeju City","country":"Corea del Sur","flag":"🇰🇷","region":"asia","lat":33.4996,"lng":126.5312,"density":76,"stops":420,"gyms":25,"rating":3,"tags":["turistico","nidos"],"tips":"Isla con stops en cada atracción natural. Ideal combinando turismo y Pokémon.","best":"Halla Mountain, Jeju Old City, Seongsan","evento":"Turismo y juego combinados","transporte":"Autobús o alquiler de auto"},

  {"name":"Marina Bay","country":"Singapur","flag":"🇸🇬","region":"asia","lat":1.2903,"lng":103.8518,"density":134,"stops":760,"gyms":46,"rating":5,"tags":["turistico","raid","evento"],"tips":"Marina Bay Sands y Gardens by the Bay son puntos calientes mundiales.","best":"Marina Bay Sands, Gardens by the Bay, Merlion","evento":"Safari Zone Singapur 2019","transporte":"MRT Downtown/Circle Line"},
  {"name":"Chinatown, Singapur","country":"Singapur","flag":"🇸🇬","region":"asia","lat":1.2837,"lng":103.8448,"density":126,"stops":710,"gyms":43,"rating":5,"tags":["turistico","raid"],"tips":"Cada templo y monumento histórico es un PokéStop. Densidad comparable a Tokio.","best":"Buddha Tooth Temple, Maxwell Food Centre","evento":"Raids coordinados frecuentes","transporte":"MRT NE Line Chinatown"},
  {"name":"Orchard Road","country":"Singapur","flag":"🇸🇬","region":"asia","lat":1.3048,"lng":103.8318,"density":120,"stops":680,"gyms":41,"rating":5,"tags":["turistico","raid","nidos"],"tips":"La calle comercial principal tiene stops en cada bloque.","best":"Orchard Road, Dhoby Ghaut, Botanic Gardens","evento":"Eventos comunitarios frecuentes","transporte":"MRT NS/NE Lines"},
  {"name":"Little India, Singapur","country":"Singapur","flag":"🇸🇬","region":"asia","lat":1.3066,"lng":103.8518,"density":108,"stops":610,"gyms":37,"rating":4,"tags":["turistico","nidos"],"tips":"Barrio histórico rico en templos hindúes, cada uno con su stop.","best":"Sri Veeramakaliamman, Mustafa Centre","evento":"Eventos culturales y raids","transporte":"MRT NE Line Little India"},
  {"name":"Sentosa Island","country":"Singapur","flag":"🇸🇬","region":"asia","lat":1.2494,"lng":103.8303,"density":98,"stops":550,"gyms":33,"rating":4,"tags":["turistico","nidos","raid"],"tips":"Densidad turística alta con nidos frecuentes y ambiente relajado.","best":"Universal Studios, Palawan Beach, VivoCity","evento":"Nidos rotativos frecuentes","transporte":"Sentosa Express, cable car"},

  {"name":"Daan, Taipei","country":"Taiwán","flag":"🇹🇼","region":"asia","lat":25.0339,"lng":121.5436,"density":124,"stops":690,"gyms":41,"rating":5,"tags":["evento","nidos","raid"],"tips":"Daan Forest Park y el Memorial de Chiang Kai-shek son de primer nivel mundial.","best":"Daan Forest Park, Ximending, Zhongzheng","evento":"Safari Zone Taipei 2023","transporte":"MRT Red/Green Line"},
  {"name":"Ximending, Taipei","country":"Taiwán","flag":"🇹🇼","region":"asia","lat":25.0437,"lng":121.5079,"density":118,"stops":660,"gyms":40,"rating":5,"tags":["turistico","evento","raid"],"tips":"Zona de ocio más densa de Taipei, equivalente a Shibuya.","best":"Ximending, Longshan Temple, Bopiliao","evento":"Comunidad muy activa","transporte":"MRT Ximen Station"},
  {"name":"Kaohsiung","country":"Taiwán","flag":"🇹🇼","region":"asia","lat":22.6273,"lng":120.3014,"density":104,"stops":590,"gyms":35,"rating":4,"tags":["raid","nidos"],"tips":"El frente marítimo y Love River tienen stops continuos.","best":"Love River, Lotus Pond, Pier-2","evento":"Comunidad activa del sur","transporte":"Kaohsiung MRT"},
  {"name":"Tainan","country":"Taiwán","flag":"🇹🇼","region":"asia","lat":22.9998,"lng":120.2270,"density":96,"stops":540,"gyms":32,"rating":4,"tags":["turistico","nidos"],"tips":"Ciudad histórica: cada templo es un PokéStop.","best":"Anping Fort, Chihkan Tower, Tainan Park","evento":"Raids coordinados","transporte":"BRT + autobuses"},
  {"name":"Taichung","country":"Taiwán","flag":"🇹🇼","region":"asia","lat":24.1477,"lng":120.6736,"density":92,"stops":520,"gyms":31,"rating":4,"tags":["nidos","raid"],"tips":"El Parque Central de Taichung tiene nidos de alta calidad.","best":"Central Park, Feng Chia Night Market","evento":"Comunidad activa","transporte":"BRT Taichung"},

  {"name":"Central, HK","country":"Hong Kong","flag":"🇭🇰","region":"asia","lat":22.2855,"lng":114.1577,"density":128,"stops":710,"gyms":42,"rating":5,"tags":["turistico","raid"],"tips":"Victoria Park y el paseo del puerto tienen stops cada 20 metros.","best":"Victoria Park, IFC, PMQ","evento":"Community Days activos","transporte":"MTR Island Line"},
  {"name":"Mong Kok, HK","country":"Hong Kong","flag":"🇭🇰","region":"asia","lat":22.3193,"lng":114.1694,"density":120,"stops":670,"gyms":40,"rating":5,"tags":["turistico","raid","nidos"],"tips":"Una de las zonas más densas de HK. Mercados y templos llenos de stops.","best":"Ladies Market, Goldfish Market, Temple Street","evento":"Raids nocturnos frecuentes","transporte":"MTR Tsuen Wan Line"},
  {"name":"Tsim Sha Tsui","country":"Hong Kong","flag":"🇭🇰","region":"asia","lat":22.2988,"lng":114.1722,"density":116,"stops":650,"gyms":39,"rating":5,"tags":["turistico","raid"],"tips":"El paseo marítimo tiene una fila interminable de stops con vistas al puerto.","best":"Avenue of Stars, Cultural Centre, Clock Tower","evento":"Comunidad muy activa","transporte":"MTR Tsuen Wan/East TST"},
  {"name":"Wan Chai, HK","country":"Hong Kong","flag":"🇭🇰","region":"asia","lat":22.2769,"lng":114.1731,"density":108,"stops":600,"gyms":36,"rating":4,"tags":["raid","nidos","turistico"],"tips":"Zona de bares y arte con buena densidad y grupos activos.","best":"Wan Chai Market, Golden Bauhinia, Convention Centre","evento":"Community Day reuniones","transporte":"MTR Island Line Wan Chai"},
  {"name":"Tuen Mun, HK","country":"Hong Kong","flag":"🇭🇰","region":"asia","lat":22.3910,"lng":113.9773,"density":86,"stops":480,"gyms":29,"rating":3,"tags":["nidos"],"tips":"Zona residencial con nidos estables. Menos conocida pero activa.","best":"Tuen Mun Park, Gold Coast","evento":"Nidos frecuentes","transporte":"LRT Tuen Mun"},

  {"name":"Trocadéro / Centro, París","country":"Francia","flag":"🇫🇷","region":"europa","lat":48.8566,"lng":2.3522,"density":119,"stops":950,"gyms":58,"rating":5,"tags":["turistico","evento","raid"],"tips":"Tullerías, Campos Elíseos y Trocadéro. Stops en cada escultura y monumento.","best":"Tuileries, Champs-Élysées, Île de la Cité","evento":"Safari Zone París 2022 (Disneyland)","transporte":"RER A, Métro Ligne 1"},
  {"name":"Le Marais, París","country":"Francia","flag":"🇫🇷","region":"europa","lat":48.8566,"lng":2.3572,"density":112,"stops":880,"gyms":53,"rating":5,"tags":["turistico","raid"],"tips":"El barrio judío y galerías de arte. Cada galería es un stop.","best":"Place des Vosges, Centre Pompidou, Bastille","evento":"Comunidad muy activa","transporte":"Métro Ligne 1/7/8"},
  {"name":"Lyon","country":"Francia","flag":"🇫🇷","region":"europa","lat":45.7640,"lng":4.8357,"density":98,"stops":570,"gyms":34,"rating":4,"tags":["turistico","raid","nidos"],"tips":"La Presqu'île y Vieux Lyon tienen buena densidad.","best":"Presqu'île, Vieux-Lyon, Fourvière","evento":"Comunidad activa, raids coordinados","transporte":"Métro/Tramway TCL"},
  {"name":"Marsella","country":"Francia","flag":"🇫🇷","region":"europa","lat":43.2965,"lng":5.3698,"density":88,"stops":500,"gyms":30,"rating":3,"tags":["turistico","nidos"],"tips":"El Vieux-Port y la Corniche tienen stops al borde del mar.","best":"Vieux-Port, MuCEM, Parc du Prado","evento":"Comunidad local activa","transporte":"Métro Ligne 1 Vieux-Port"},
  {"name":"Bordeaux","country":"Francia","flag":"🇫🇷","region":"europa","lat":44.8378,"lng":-0.5792,"density":84,"stops":470,"gyms":28,"rating":3,"tags":["turistico","nidos"],"tips":"El casco histórico UNESCO tiene stops en cada edificio catalogado.","best":"Place de la Bourse, Miroir d'eau, St Michel","evento":"Comunidad creciente","transporte":"Tramway Line A/B/C"},
  {"name":"Estrasburgo","country":"Francia","flag":"🇫🇷","region":"europa","lat":48.5734,"lng":7.7521,"density":82,"stops":460,"gyms":27,"rating":3,"tags":["turistico","nidos"],"tips":"La Grande Île tiene densidad notable. Ciudad compacta muy jugable.","best":"Grande Île, Petite France, Cathédrale","evento":"Eventos europeos cercanos","transporte":"Tramway CTS"},
  {"name":"Niza","country":"Francia","flag":"🇫🇷","region":"europa","lat":43.7102,"lng":7.2620,"density":80,"stops":450,"gyms":27,"rating":3,"tags":["turistico","nidos","raid"],"tips":"La Promenade des Anglais y el casco antiguo ofrecen buena densidad costera.","best":"Promenade des Anglais, Vieux-Nice, Cimiez","evento":"Comunidad turística activa","transporte":"Tramway T1/T2"},

  {"name":"Barri Gòtic, Barcelona","country":"España","flag":"🇪🇸","region":"europa","lat":41.3851,"lng":2.1734,"density":115,"stops":680,"gyms":40,"rating":5,"tags":["turistico","evento","raid"],"tips":"Barrio Gótico y Paseo de Gracia: stops en cada edificio modernista.","best":"Barri Gòtic, Passeig de Gràcia, Parc Güell","evento":"Safari Zone Barcelona 2019","transporte":"Metro L3/L4"},
  {"name":"El Retiro, Madrid","country":"España","flag":"🇪🇸","region":"europa","lat":40.4153,"lng":-3.6844,"density":108,"stops":620,"gyms":37,"rating":4,"tags":["turistico","evento","raid"],"tips":"El parque del Retiro y el Paseo del Arte concentran densidad altísima.","best":"Parque del Retiro, Prado, Gran Vía","evento":"Community Days masivos en el Retiro","transporte":"Metro L2/L9 Retiro"},
  {"name":"Sevilla","country":"España","flag":"🇪🇸","region":"europa","lat":37.3891,"lng":-5.9845,"density":96,"stops":550,"gyms":33,"rating":4,"tags":["turistico","nidos","raid"],"tips":"La Giralda, el Alcázar y el Parque de María Luisa. Cada monumento es un stop.","best":"Casco Histórico, Parque María Luisa, Triana","evento":"Comunidad muy activa en verano","transporte":"Metro L1, tranvía"},
  {"name":"Valencia","country":"España","flag":"🇪🇸","region":"europa","lat":39.4699,"lng":-0.3763,"density":92,"stops":520,"gyms":31,"rating":4,"tags":["turistico","nidos"],"tips":"El Jardín del Turia es un parque lineal de 9km lleno de stops seguidos.","best":"Jardín del Turia, Ciudad de las Artes, Malvarrosa","evento":"Comunidad activa, eventos periódicos","transporte":"Metro/EMT Valencia"},
  {"name":"Bilbao","country":"España","flag":"🇪🇸","region":"europa","lat":43.2630,"lng":-2.9350,"density":86,"stops":490,"gyms":29,"rating":3,"tags":["turistico","raid"],"tips":"El Guggenheim y el casco viejo tienen densidad interesante.","best":"Guggenheim, Casco Viejo, Parque Doña Casilda","evento":"Grupos de raids activos","transporte":"Metro Bilbao Línea 1/2"},
  {"name":"Zaragoza","country":"España","flag":"🇪🇸","region":"europa","lat":41.6488,"lng":-0.8891,"density":80,"stops":450,"gyms":27,"rating":3,"tags":["nidos","raid"],"tips":"El Paseo de la Independencia y la Basílica del Pilar tienen buena concentración.","best":"Basílica del Pilar, Parque Grande, Casco Histórico","evento":"Comunidad local activa","transporte":"Tranvía/autobús"},

  {"name":"Hyde Park, Londres","country":"Reino Unido","flag":"🇬🇧","region":"europa","lat":51.5074,"lng":-0.1278,"density":112,"stops":920,"gyms":56,"rating":5,"tags":["turistico","evento","raid"],"tips":"Hyde Park, Regent's Park y South Bank. Cada museo tiene docenas de stops.","best":"Hyde Park, Trafalgar Square, South Bank","evento":"Community Days masivos en Hyde Park","transporte":"Underground Central/Jubilee Line"},
  {"name":"Shoreditch, Londres","country":"Reino Unido","flag":"🇬🇧","region":"europa","lat":51.5227,"lng":-0.0797,"density":104,"stops":850,"gyms":51,"rating":4,"tags":["raid","nidos"],"tips":"East London con arte callejero. Cada mural es un stop potencial.","best":"Shoreditch, Brick Lane, Victoria Park","evento":"Comunidad activa de East London","transporte":"Overground/Elizabeth Line"},
  {"name":"Mánchester","country":"Reino Unido","flag":"🇬🇧","region":"europa","lat":53.4808,"lng":-2.2426,"density":94,"stops":540,"gyms":32,"rating":4,"tags":["raid","nidos","evento"],"tips":"Spinningfields y Northern Quarter tienen buena densidad.","best":"Piccadilly Gardens, Northern Quarter, Media City","evento":"Go Battle League activo","transporte":"Metrolink tram"},
  {"name":"Edimburgo","country":"Reino Unido","flag":"🇬🇧","region":"europa","lat":55.9533,"lng":-3.1883,"density":90,"stops":510,"gyms":30,"rating":4,"tags":["turistico","raid"],"tips":"El Royal Mile y Princes Street tienen stops en cada edificio histórico.","best":"Royal Mile, Princes St Gardens, Holyrood Park","evento":"Comunidad escocesa activa","transporte":"Lothian Buses, tranvía"},
  {"name":"Birmingham","country":"Reino Unido","flag":"🇬🇧","region":"europa","lat":52.4862,"lng":-1.8904,"density":82,"stops":460,"gyms":27,"rating":3,"tags":["raid","nidos"],"tips":"Brindleyplace y los canales tienen paradas seguidas.","best":"Brindleyplace, Bullring, Sutton Park","evento":"Comunidad activa de Midlands","transporte":"Metro/bus centro"},
  {"name":"Bristol","country":"Reino Unido","flag":"🇬🇧","region":"europa","lat":51.4545,"lng":-2.5879,"density":78,"stops":430,"gyms":26,"rating":3,"tags":["turistico","nidos"],"tips":"El puerto histórico y Clifton tienen buena densidad en zona compacta.","best":"Harbourside, Clifton, Banksy locations","evento":"Raids coordinados activos","transporte":"Bus/ferry Harbourside"},

  {"name":"Mitte, Berlín","country":"Alemania","flag":"🇩🇪","region":"europa","lat":52.5200,"lng":13.4050,"density":96,"stops":590,"gyms":35,"rating":4,"tags":["turistico","raid"],"tips":"Tiergarten y la isla de los museos son zonas de alta densidad.","best":"Tiergarten, Museumsinsel, Unter den Linden","evento":"Safari Zone Dortmund cercano","transporte":"U-Bahn/S-Bahn Friedrichstr"},
  {"name":"Múnich Centro","country":"Alemania","flag":"🇩🇪","region":"europa","lat":48.1351,"lng":11.5820,"density":94,"stops":540,"gyms":32,"rating":4,"tags":["turistico","raid","evento"],"tips":"Englischer Garten (más grande que Central Park) con densidad excepcional.","best":"Englischer Garten, Marienplatz, Olympiapark","evento":"GO Fest área Múnich, Community Days activos","transporte":"U-Bahn/S-Bahn Marienplatz"},
  {"name":"Hamburgo","country":"Alemania","flag":"🇩🇪","region":"europa","lat":53.5753,"lng":10.0153,"density":88,"stops":500,"gyms":30,"rating":4,"tags":["turistico","raid"],"tips":"El lago Alster y la Speicherstadt tienen stops en zonas peatonales.","best":"Binnenalster, Speicherstadt, Reeperbahn","evento":"Comunidad activa norteña","transporte":"U-Bahn/S-Bahn Jungfernstieg"},
  {"name":"Dortmund","country":"Alemania","flag":"🇩🇪","region":"europa","lat":51.5136,"lng":7.4653,"density":82,"stops":460,"gyms":27,"rating":4,"tags":["evento","raid"],"tips":"Sede del Safari Zone Europa. Westfalenpark durante eventos tiene densidad muy alta.","best":"Westfalenpark, Rombergpark, Centro Ciudad","evento":"Safari Zone Dortmund 2022/2023","transporte":"U-Bahn Dortmund"},
  {"name":"Colonia","country":"Alemania","flag":"🇩🇪","region":"europa","lat":50.9333,"lng":6.9500,"density":80,"stops":450,"gyms":27,"rating":3,"tags":["turistico","raid"],"tips":"La Catedral de Colonia y el barrio belga tienen buena concentración.","best":"Dom, Rheinboulevard, Belgisches Viertel","evento":"Comunidad activa de Renania","transporte":"KVB U-Bahn/Tram"},
  {"name":"Frankfurt","country":"Alemania","flag":"🇩🇪","region":"europa","lat":50.1109,"lng":8.6821,"density":78,"stops":440,"gyms":26,"rating":3,"tags":["raid","nidos"],"tips":"Museumsufer y Sachsenhausen tienen densidad interesante.","best":"Museumsufer, Sachsenhausen, Palmengarten","evento":"Comunidad activa","transporte":"U-Bahn/S-Bahn Frankfurt"},

  {"name":"Central Park, NYC","country":"EE.UU.","flag":"🇺🇸","region":"america","lat":40.7831,"lng":-73.9712,"density":106,"stops":1200,"gyms":72,"rating":5,"tags":["evento","raid","nidos","turistico"],"tips":"Central Park es el mejor lugar del mundo para eventos outdoor.","best":"Central Park, Times Square, The High Line","evento":"GO Fest NYC, múltiples Community Days","transporte":"Subway todas las líneas"},
  {"name":"Chicago Grant Park","country":"EE.UU.","flag":"🇺🇸","region":"america","lat":41.8781,"lng":-87.6298,"density":102,"stops":580,"gyms":35,"rating":4,"tags":["evento","raid"],"tips":"Grant Park fue sede del primer GO Fest. Buena densidad en la orilla del lago Míchigan.","best":"Grant Park, Millennium Park, Navy Pier","evento":"GO Fest original 2017 y varios más","transporte":"CTA Red/Blue Line"},
  {"name":"San Francisco","country":"EE.UU.","flag":"🇺🇸","region":"america","lat":37.7749,"lng":-122.4194,"density":98,"stops":560,"gyms":33,"rating":4,"tags":["turistico","raid","evento"],"tips":"Golden Gate Park y el Embarcadero tienen densidad alta.","best":"Golden Gate Park, Embarcadero, Union Square","evento":"GO Fest SF realizado","transporte":"BART/Muni/Cable Car"},
  {"name":"Washington D.C.","country":"EE.UU.","flag":"🇺🇸","region":"america","lat":38.9072,"lng":-77.0369,"density":96,"stops":550,"gyms":33,"rating":4,"tags":["turistico","raid","evento"],"tips":"El National Mall tiene decenas de stops en cada monumento y museo.","best":"National Mall, Rock Creek Park, Georgetown","evento":"Community Days en el Mall","transporte":"DC Metro Red/Blue/Orange"},
  {"name":"Los Ángeles","country":"EE.UU.","flag":"🇺🇸","region":"america","lat":34.0522,"lng":-118.2437,"density":88,"stops":790,"gyms":47,"rating":4,"tags":["turistico","raid","nidos"],"tips":"Santa Monica Pier y Venice Beach son los puntos más populares.","best":"Santa Monica Pier, Venice Beach, Griffith Park","evento":"Safari Zone LA realizado","transporte":"Metro Red/Purple Line o coche"},
  {"name":"Seattle","country":"EE.UU.","flag":"🇺🇸","region":"america","lat":47.6062,"lng":-122.3321,"density":84,"stops":480,"gyms":29,"rating":3,"tags":["raid","nidos","evento"],"tips":"Pike Place Market y los parques del lago tienen stops contiguos.","best":"Pike Place Market, Cal Anderson Park, UW Campus","evento":"Comunidad activa del noroeste","transporte":"Light Rail/bus"},
  {"name":"Boston","country":"EE.UU.","flag":"🇺🇸","region":"america","lat":42.3601,"lng":-71.0589,"density":82,"stops":490,"gyms":29,"rating":3,"tags":["turistico","raid"],"tips":"The Common y el Freedom Trail tienen buena densidad histórica.","best":"Boston Common, Freedom Trail, Cambridge","evento":"Comunidad universitaria activa","transporte":"MBTA Green/Red Line"},

  {"name":"Ibirapuera, São Paulo","country":"Brasil","flag":"🇧🇷","region":"america","lat":-23.5873,"lng":-46.6573,"density":98,"stops":720,"gyms":43,"rating":4,"tags":["raid","nidos","evento"],"tips":"Parque Ibirapuera y Av. Paulista: juego intensivo con gran comunidad.","best":"Av. Paulista, Ibirapuera, Vila Madalena","evento":"Comunidad muy activa, eventos locales","transporte":"Metrô Linha 2 Verde"},
  {"name":"Copacabana, Río","country":"Brasil","flag":"🇧🇷","region":"america","lat":-22.9711,"lng":-43.1822,"density":94,"stops":680,"gyms":41,"rating":4,"tags":["turistico","raid","nidos"],"tips":"Copacabana e Ipanema: densidad excepcional en el borde costero.","best":"Copacabana, Ipanema, Parque Lage","evento":"Eventos durante Carnaval y festivos","transporte":"Metrô Linha 1, buses"},
  {"name":"Belo Horizonte","country":"Brasil","flag":"🇧🇷","region":"america","lat":-19.9245,"lng":-43.9352,"density":86,"stops":490,"gyms":29,"rating":3,"tags":["raid","nidos"],"tips":"El Parque Municipal y la Praça da Liberdade concentran los mejores nidos.","best":"Parque Municipal, Pampulha, Savassi","evento":"Comunidad activa de BH","transporte":"BHBUS Linha Sul"},
  {"name":"Curitiba","country":"Brasil","flag":"🇧🇷","region":"america","lat":-25.4290,"lng":-49.2671,"density":82,"stops":460,"gyms":27,"rating":3,"tags":["nidos","raid"],"tips":"Los parques urbanos de Curitiba son los mejor planificados de Brasil.","best":"Parque Barigui, Ópera de Arame, Jardim Botânico","evento":"Comunidad activa","transporte":"Expresso Biarticulado"},
  {"name":"Brasília","country":"Brasil","flag":"🇧🇷","region":"america","lat":-15.7801,"lng":-47.9292,"density":78,"stops":440,"gyms":26,"rating":3,"tags":["turistico","nidos"],"tips":"La ciudad modernista tiene stops en cada monumento gubernamental.","best":"Congresso Nacional, Catedral, Parque da Cidade","evento":"Comunidad organizada","transporte":"Metrô DF"},
  {"name":"Fortaleza","country":"Brasil","flag":"🇧🇷","region":"america","lat":-3.7319,"lng":-38.5267,"density":76,"stops":420,"gyms":25,"rating":3,"tags":["turistico","nidos"],"tips":"El malecón y las playas tienen stops al borde del Atlántico.","best":"Beira-Mar, Praia do Futuro, Iracema","evento":"Comunidad noreste activa","transporte":"VLT/buses"},

  {"name":"Chapultepec, CDMX","country":"México","flag":"🇲🇽","region":"america","lat":19.4193,"lng":-99.1883,"density":88,"stops":810,"gyms":48,"rating":4,"tags":["evento","raid","nidos","turistico"],"tips":"El Bosque de Chapultepec es el Central Park de México.","best":"Chapultepec, Coyoacán, Zócalo, Roma/Condesa","evento":"Eventos masivos frecuentes","transporte":"Metro Línea 1/2, Metrobús"},
  {"name":"Coyoacán, CDMX","country":"México","flag":"🇲🇽","region":"america","lat":19.3467,"lng":-99.1617,"density":84,"stops":470,"gyms":28,"rating":4,"tags":["turistico","nidos","raid"],"tips":"El jardín central y sus museos son un imán para nidos raros.","best":"Jardín Centenario, Museo Frida Kahlo, Viveros","evento":"Comunidad muy activa","transporte":"Metro Coyoacán L3"},
  {"name":"Guadalajara","country":"México","flag":"🇲🇽","region":"america","lat":20.6597,"lng":-103.3496,"density":80,"stops":450,"gyms":27,"rating":3,"tags":["raid","nidos","evento"],"tips":"Centro Histórico y Zona Rosa con buena densidad.","best":"Centro Histórico, Providencia, Minerva","evento":"Eventos regionales frecuentes","transporte":"Tren Ligero/Macrobús"},
  {"name":"Monterrey","country":"México","flag":"🇲🇽","region":"america","lat":25.6866,"lng":-100.3161,"density":76,"stops":430,"gyms":26,"rating":3,"tags":["raid","nidos"],"tips":"Barrio Antiguo y Parque Fundidora tienen la mejor densidad.","best":"Barrio Antiguo, Parque Fundidora, San Pedro","evento":"Comunidad norteña activa","transporte":"Metro Línea 1/2/3"},
  {"name":"Puebla","country":"México","flag":"🇲🇽","region":"america","lat":19.0414,"lng":-98.2063,"density":74,"stops":410,"gyms":24,"rating":3,"tags":["turistico","nidos"],"tips":"El zócalo y los barrios históricos tienen stops en cada iglesia colonial.","best":"Zócalo, Barrio del Artista, Paseo de San Francisco","evento":"Comunidad activa del centro","transporte":"Metrobús/RUTA"},
  {"name":"Cancún Zona Hotelera","country":"México","flag":"🇲🇽","region":"america","lat":21.1743,"lng":-86.8466,"density":70,"stops":390,"gyms":23,"rating":3,"tags":["turistico","nidos"],"tips":"La zona hotelera combina playa y Pokémon con jugadores internacionales.","best":"Zona Hotelera, Parque Las Palapas, El Centro","evento":"Turismo activo con jugadores internacionales","transporte":"Bus R1/R2 zona hotelera"},

  {"name":"Palermo, Buenos Aires","country":"Argentina","flag":"🇦🇷","region":"america","lat":-34.5883,"lng":-58.4269,"density":86,"stops":560,"gyms":33,"rating":4,"tags":["raid","nidos","evento"],"tips":"Bosques de Palermo = Central Park porteño. Puerto Madero y Recoleta también excelentes.","best":"Bosques de Palermo, Recoleta, Puerto Madero","evento":"Comunidad activa, raids coordinados","transporte":"Subte Línea D, colectivos"},
  {"name":"San Telmo, Buenos Aires","country":"Argentina","flag":"🇦🇷","region":"america","lat":-34.6228,"lng":-58.3731,"density":80,"stops":450,"gyms":27,"rating":3,"tags":["turistico","raid"],"tips":"Barrio histórico con stops en plazas y murales del sur porteño.","best":"Plaza Dorrego, Caminito, Boca","evento":"Grupos de WhatsApp muy organizados","transporte":"Subte Línea C, colectivos"},
  {"name":"Córdoba","country":"Argentina","flag":"🇦🇷","region":"america","lat":-31.4167,"lng":-64.1833,"density":74,"stops":410,"gyms":24,"rating":3,"tags":["raid","nidos"],"tips":"La Cañada y la Ciudad Universitaria tienen nidos activos.","best":"La Cañada, Parque Sarmiento, Nueva Córdoba","evento":"Comunidad universitaria activa","transporte":"Bus TAMSE/ERSA"},
  {"name":"Mendoza","country":"Argentina","flag":"🇦🇷","region":"america","lat":-32.8908,"lng":-68.8272,"density":68,"stops":380,"gyms":22,"rating":3,"tags":["nidos","turistico"],"tips":"Parque General San Martín tiene stops en cada fuente y monumento.","best":"Parque Gral San Martín, Vendimia, Aristides","evento":"Comunidad activa de Cuyo","transporte":"Bus RED Mendoza"},
  {"name":"Rosario","country":"Argentina","flag":"🇦🇷","region":"america","lat":-32.9468,"lng":-60.6393,"density":72,"stops":400,"gyms":24,"rating":3,"tags":["raid","nidos"],"tips":"El frente fluvial del Paraná tiene stops en cada escultura y parque costero.","best":"Parque de España, Monumento Nacional, Costanera","evento":"Grupos de raiders activos","transporte":"Bus SAETA"},

  {"name":"Sydney CBD","country":"Australia","flag":"🇦🇺","region":"oceania","lat":-33.8688,"lng":151.2093,"density":108,"stops":640,"gyms":38,"rating":4,"tags":["turistico","raid","nidos"],"tips":"Sydney Harbour y Hyde Park son excelentes. Bondi Beach tiene densidad costera alta.","best":"Sydney Harbour, Hyde Park, Darling Harbour","evento":"Safari Zone Sydney 2019","transporte":"Train/Ferry desde Central"},
  {"name":"Melbourne CBD","country":"Australia","flag":"🇦🇺","region":"oceania","lat":-37.8136,"lng":144.9631,"density":90,"stops":540,"gyms":32,"rating":4,"tags":["raid","nidos","evento"],"tips":"Fitzroy Gardens y el CBD Grid tienen densidad similar a ciudades europeas.","best":"Fitzroy Gardens, CBD, Southbank","evento":"Comunidad activa, eventos periódicos","transporte":"Tram City Circle (gratis)"},
  {"name":"Brisbane","country":"Australia","flag":"🇦🇺","region":"oceania","lat":-27.4698,"lng":153.0251,"density":82,"stops":460,"gyms":27,"rating":3,"tags":["raid","nidos"],"tips":"South Bank y las riberas del Brisbane River tienen buena densidad.","best":"South Bank, Botanical Gardens, Fortitude Valley","evento":"Comunidad QLD activa","transporte":"TransLink bus/train"},
  {"name":"Perth","country":"Australia","flag":"🇦🇺","region":"oceania","lat":-31.9505,"lng":115.8605,"density":76,"stops":420,"gyms":25,"rating":3,"tags":["nidos","raid"],"tips":"Kings Park con su botánica tiene stops contiguos.","best":"Kings Park, Fremantle, Northbridge","evento":"Comunidad oeste activa","transporte":"Transperth train"},
  {"name":"Adelaide","country":"Australia","flag":"🇦🇺","region":"oceania","lat":-34.9285,"lng":138.6007,"density":72,"stops":400,"gyms":24,"rating":3,"tags":["nidos","raid"],"tips":"El parque lineal alrededor del centro ofrece paradas continuas.","best":"Adelaide Parklands, Rundle Mall, Glenelg","evento":"Comunidad SA activa","transporte":"Tram/bus Adelaidelink"},
  {"name":"Canberra","country":"Australia","flag":"🇦🇺","region":"oceania","lat":-35.2809,"lng":149.1300,"density":68,"stops":370,"gyms":22,"rating":3,"tags":["turistico","nidos"],"tips":"La capital tiene stops en cada monumento y museo gubernamental.","best":"Lake Burley Griffin, National Museum, Questacon","evento":"Comunidad ACT pequeña pero activa","transporte":"ACTION buses"},

  {"name":"Auckland CBD","country":"Nueva Zelanda","flag":"🇳🇿","region":"oceania","lat":-36.8485,"lng":174.7633,"density":82,"stops":460,"gyms":27,"rating":3,"tags":["turistico","raid","nidos"],"tips":"El waterfront y las reservas volcánicas tienen buena densidad.","best":"Viaduct Harbour, Domain, Ponsonby","evento":"Comunidad NZ activa","transporte":"AT Metro/ferry"},
  {"name":"Wellington","country":"Nueva Zelanda","flag":"🇳🇿","region":"oceania","lat":-41.2865,"lng":174.7762,"density":76,"stops":420,"gyms":25,"rating":3,"tags":["turistico","raid"],"tips":"Ciudad compacta: waterfront y Botanic Garden son puntos calientes.","best":"Te Papa Museum, Botanic Garden, Cuba Street","evento":"Comunidad Wellington activa","transporte":"Metlink bus"},
  {"name":"Christchurch","country":"Nueva Zelanda","flag":"🇳🇿","region":"oceania","lat":-43.5321,"lng":172.6362,"density":70,"stops":390,"gyms":23,"rating":3,"tags":["nidos","raid"],"tips":"Hagley Park y el Botanic Garden son los mejores puntos.","best":"Hagley Park, Botanic Garden, Arts Centre","evento":"Comunidad South Island activa","transporte":"Metro bus"},
  {"name":"Queenstown","country":"Nueva Zelanda","flag":"🇳🇿","region":"oceania","lat":-45.0312,"lng":168.6626,"density":62,"stops":340,"gyms":20,"rating":3,"tags":["turistico","nidos"],"tips":"Ciudad turística con stops en cada atracción de aventura.","best":"Queenstown Bay, Skyline, Remarkables","evento":"Jugadores turistas internacionales","transporte":"Orbus/taxi"},
  {"name":"Hamilton","country":"Nueva Zelanda","flag":"🇳🇿","region":"oceania","lat":-37.7870,"lng":175.2793,"density":58,"stops":320,"gyms":19,"rating":2,"tags":["nidos"],"tips":"Los jardines y el río Waikato tienen stops para juego tranquilo.","best":"Hamilton Gardens, Waikato River, Victoria St","evento":"Comunidad local pequeña","transporte":"Busit! buses"},

  {"name":"Ciudad del Cabo","country":"Sudáfrica","flag":"🇿🇦","region":"africa","lat":-33.9249,"lng":18.4241,"density":72,"stops":400,"gyms":24,"rating":3,"tags":["turistico","nidos","raid"],"tips":"V&A Waterfront y Company's Garden tienen stops en cada escultura y museo.","best":"V&A Waterfront, Company's Garden, De Waal Park","evento":"Comunidad activa sudafricana","transporte":"MyCiTi bus, taxis"},
  {"name":"Johannesburgo","country":"Sudáfrica","flag":"🇿🇦","region":"africa","lat":-26.2041,"lng":28.0473,"density":66,"stops":370,"gyms":22,"rating":3,"tags":["raid","nidos"],"tips":"Sandton y Rosebank tienen la mayor densidad. Zona norte más segura.","best":"Sandton City, Rosebank, Zoo Lake","evento":"Comunidad JHB activa","transporte":"Gautrain/Uber"},
  {"name":"Durban","country":"Sudáfrica","flag":"🇿🇦","region":"africa","lat":-29.8587,"lng":31.0218,"density":62,"stops":340,"gyms":20,"rating":3,"tags":["turistico","nidos"],"tips":"El Golden Mile y el Botanic Garden tienen stops al borde del Índico.","best":"Golden Mile, uShaka Marine, Botanic Gardens","evento":"Comunidad KZN activa","transporte":"Taxis/buses"},
  {"name":"Pretoria","country":"Sudáfrica","flag":"🇿🇦","region":"africa","lat":-25.7479,"lng":28.2293,"density":58,"stops":320,"gyms":19,"rating":2,"tags":["nidos","turistico"],"tips":"Las Union Buildings y los parques gubernamentales tienen densidad notable.","best":"Union Buildings, Ditsong Museum, Hatfield","evento":"Comunidad capital activa","transporte":"Tshwane Bus/Gautrain"},
  {"name":"Port Elizabeth","country":"Sudáfrica","flag":"🇿🇦","region":"africa","lat":-33.9608,"lng":25.6022,"density":52,"stops":290,"gyms":17,"rating":2,"tags":["nidos"],"tips":"El frente marítimo de Humewood y el mercado histórico son los mejores puntos.","best":"Humewood Beach, Market Square, Boardwalk","evento":"Comunidad PE pequeña","transporte":"MBDA bus"},
  {"name":"East London, SA","country":"Sudáfrica","flag":"🇿🇦","region":"africa","lat":-32.9832,"lng":27.9001,"density":48,"stops":260,"gyms":15,"rating":2,"tags":["nidos"],"tips":"El frente costero del Índico tiene stops escasos pero activos.","best":"Orient Beach, Aquarium, East London Museum","evento":"Comunidad pequeña activa","transporte":"Bus local"}
]
